station_name,station_code,ward_name,constituency_name,county_name,latitude,longitude,registered_voters
Karura Primary School,PS001234,dagoretti north Ward 1,DAGORETTI NORTH,NAIROBI,-1.2634556,36.8076836,850
Muthaiga Primary School,PS001235,dagoretti north Ward 2,DAGORETTI NORTH,NAIROBI,-1.2512345,36.8187654,920
Kangemi Social Hall,PS001236,dagoretti north Ward 3,DAGORETTI NORTH,NAIROBI,-1.2623456,36.7654321,780
Westlands Primary School,PS001237,dagoretti north Ward 4,DAGORETTI NORTH,NAIROBI,-1.2676543,36.8098765,895
Parklands Mosque Hall,PS001238,dagoretti north Ward 5,DAGORETTI NORTH,NAIROBI,-1.2554321,36.8210987,1050
